City_ID,City,Lat,Lng,Max Temp,Humidity,Cloudiness,Wind Speed,Country,Date
0,dikson,73.5069,80.5464,-9.87,92,{'all': 11},16.2,RU,1681225672
1,okhotsk,59.3833,143.3,7.95,90,{'all': 7},4.52,RU,1681225672
2,avarua,-21.2078,-159.775,77.05,69,{'all': 25},5.75,CK,1681225672
3,rikitea,-23.1203,-134.9692,76.42,70,{'all': 100},6.42,PF,1681225672
4,havre-saint-pierre,50.2334,-63.5986,33.76,99,{'all': 100},7.92,CA,1681225672
5,severo-kurilsk,50.6789,156.125,30.02,80,{'all': 90},24.23,RU,1681225673
6,hermanus,-34.4187,19.2345,64.8,61,{'all': 100},8.86,ZA,1681225673
7,hampton,37.0299,-76.3452,64.18,41,{'all': 0},8.05,US,1681225673
8,asau,46.4333,26.4,45.52,96,{'all': 100},8.01,RO,1681225673
9,nikolayevka,53.1257,47.2041,54.46,41,{'all': 3},5.66,RU,1681225674
10,yellowknife,62.456,-114.3525,18.52,92,{'all': 100},11.45,CA,1681225674
11,fort abbas,29.1925,72.8536,87.76,20,{'all': 100},21.32,PK,1681225674
12,thinadhoo,0.5333,72.9333,83.23,70,{'all': 46},2.39,MV,1681225674
13,georgetown,5.4112,100.3354,85.95,83,{'all': 20},3.44,MY,1681225500
14,vaini,-21.2,-175.2,78.96,83,{'all': 20},10.36,TO,1681225674
15,kemijarvi,66.7131,27.4306,34.66,99,{'all': 100},5.08,FI,1681225675
16,mogadishu,2.0371,45.3438,85.87,79,{'all': 40},14.97,SO,1681225534
17,victoria,22.2855,114.1577,75.33,87,{'all': 17},1.01,HK,1681225509
18,cape town,-33.9258,18.4232,66.88,48,{'all': 0},17.27,ZA,1681225415
19,mataura,-46.1927,168.8643,52.48,99,{'all': 91},2.62,NZ,1681225675
20,petawawa,45.9001,-77.3328,40.59,75,{'all': 100},3.44,CA,1681225576
21,tuktoyaktuk,69.4541,-133.0374,-2.2,78,{'all': 20},21.85,CA,1681225676
22,mahebourg,-20.4081,57.7,78.26,80,{'all': 85},10.29,MU,1681225676
23,bilma,18.6853,12.9164,93.56,9,{'all': 68},20.4,NE,1681225676
24,busselton,-33.65,115.3333,61.92,76,{'all': 24},4.09,AU,1681225676
25,punta arenas,-53.15,-70.9167,46.51,57,{'all': 40},20.71,CL,1681225672
26,ushuaia,-54.8,-68.3,37.06,75,{'all': 75},11.5,AR,1681225677
27,camacha,33.0833,-16.3333,67.42,64,{'all': 20},9.22,PT,1681225677
28,andenes,69.3143,16.1194,42.93,65,{'all': 0},5.75,NO,1681225677
29,suclayin,15.7568,121.5503,73.29,91,{'all': 100},4.21,PH,1681225677
30,saint george,37.1041,-113.5841,50.59,62,{'all': 0},5.75,US,1681224847
31,ponta do sol,32.6667,-17.1,79.72,66,{'all': 1},5.95,PT,1681225678
32,phan thiet,10.9333,108.1,78.19,91,{'all': 57},3.94,VN,1681225545
33,fairbanks,64.8378,-147.7164,-0.06,74,{'all': 40},3.44,US,1681225614
34,new norfolk,-42.7826,147.0587,53.71,77,{'all': 99},1.01,AU,1681225678
35,chuy,-33.6971,-53.4616,78.13,60,{'all': 28},7.56,UY,1681225678
36,urengoy,65.9667,78.3667,-1.89,95,{'all': 100},11.18,RU,1681225678
37,mehamn,71.0357,27.8492,35.55,87,{'all': 100},5.75,NO,1681225678
38,talcahuano,-36.7167,-73.1167,64.08,82,{'all': 40},2.3,CL,1681225679
39,ylojarvi,61.5563,23.5961,51.71,43,{'all': 0},10.36,FI,1681225679
40,odesskoye,54.2111,72.9651,31.91,56,{'all': 53},6.8,RU,1681225679
41,oktyabrskoye,43.0645,44.7417,50.14,87,{'all': 100},8.95,RU,1681225679
42,aklavik,68.2191,-135.0107,-4.04,96,{'all': 100},3.91,CA,1681225679
43,skeldon,5.8833,-57.1333,86.5,60,{'all': 95},7.85,GY,1681225679
44,jamestown,42.097,-79.2353,62.24,32,{'all': 0},10.36,US,1681225443
45,roma,43.2128,-75.4557,64.72,43,{'all': 100},1.99,US,1681225493
46,albany,42.6001,-73.9662,65.68,29,{'all': 98},1.99,US,1681225648
47,bredasdorp,-34.5322,20.0403,62.55,53,{'all': 98},9.35,ZA,1681225680
48,esperance,-33.8667,121.9,63.16,82,{'all': 26},1.19,AU,1681225680
49,tazovskiy,67.4667,78.7,-0.89,95,{'all': 100},11.18,RU,1681225680
50,vadso,70.0744,29.7487,36.48,80,{'all': 75},13.8,NO,1681225396
51,beringovskiy,63.05,179.3167,1.83,89,{'all': 100},17.52,RU,1681225681
52,kyabram,-36.3167,145.05,54.81,68,{'all': 96},7.31,AU,1681225681
53,ios,36.7333,25.2833,61.05,51,{'all': 11},15.01,GR,1681225682
54,saint-joseph,-21.3667,55.6167,79.18,82,{'all': 80},2.68,RE,1681225683
55,kayes,14.0,-11.0,91.11,31,{'all': 100},4.61,ML,1681225683
56,bluff,-46.6,168.3333,52.81,91,{'all': 100},14.67,NZ,1681225683
57,pouebo,-20.4,164.5667,76.23,84,{'all': 7},2.84,NC,1681225684
58,port blair,11.6667,92.75,83.21,69,{'all': 32},5.82,IN,1681225685
59,meulaboh,4.1363,96.1285,79.14,83,{'all': 84},2.13,ID,1681225685
60,calama,-22.4667,-68.9333,73.89,13,{'all': 0},4.61,CL,1681225685
61,nueva loja,0.0847,-76.8828,80.62,78,{'all': 75},3.44,EC,1681225686
62,ancud,-41.8697,-73.8203,55.4,98,{'all': 100},1.7,CL,1681225686
63,kapaa,22.0752,-159.319,73.72,85,{'all': 100},21.85,US,1681225687
64,hobart,-42.8794,147.3294,54.05,94,{'all': 100},0.0,AU,1681225687
65,lompoc,34.6391,-120.4579,52.84,84,{'all': 100},11.01,US,1681225688
66,laem sing,12.4816,102.0738,82.69,77,{'all': 59},5.97,TH,1681225688
67,damaturu,11.747,11.9608,106.07,9,{'all': 86},16.73,NG,1681225405
68,hithadhoo,-0.6,73.0833,83.68,64,{'all': 14},0.63,MV,1681225689
69,kungurtug,50.5994,97.5228,28.53,85,{'all': 100},1.79,RU,1681225689
70,de land,29.0283,-81.3031,76.1,58,{'all': 40},18.41,US,1681225690
71,khandyga,62.6667,135.6,5.2,92,{'all': 100},2.73,RU,1681225690
72,el estor,15.5333,-89.35,81.48,55,{'all': 2},1.12,GT,1681225690
73,rivers,50.0308,-100.2403,38.21,98,{'all': 94},12.3,CA,1681225692
74,butaritari,3.0707,172.7902,79.93,82,{'all': 100},12.35,KI,1681225693
75,barcelos,41.5388,-8.6151,67.91,62,{'all': 100},8.19,PT,1681225461
76,burns lake,54.2331,-125.7533,28.62,93,{'all': 100},2.33,CA,1681225694
77,hami,42.8,93.45,60.28,23,{'all': 99},8.72,CN,1681225635
78,richards bay,-28.783,32.0377,70.29,62,{'all': 100},8.79,ZA,1681225695
79,arraial do cabo,-22.9661,-42.0278,82.26,61,{'all': 75},11.5,BR,1681225695
80,olafsvik,64.8945,-23.7142,36.81,97,{'all': 100},8.55,IS,1681225696
81,chokurdakh,70.6333,147.9167,-17.41,95,{'all': 80},2.82,RU,1681225697
82,haines junction,60.7522,-137.5108,3.31,84,{'all': 2},2.82,CA,1681225697
83,necochea,-38.5473,-58.7368,68.38,64,{'all': 100},11.77,AR,1681225698
84,goma,-1.6792,29.2228,72.32,72,{'all': 84},0.56,CD,1681225698
85,fukue,32.6881,128.8419,64.98,84,{'all': 100},13.73,JP,1681225699
86,cidreira,-30.1811,-50.2056,79.84,59,{'all': 2},6.8,BR,1681225699
87,qaanaaq,77.484,-69.3632,-4.32,74,{'all': 2},1.83,GL,1681225699
88,saint-pierre,-21.3393,55.4781,80.28,78,{'all': 100},3.44,RE,1681225699
89,dno,57.8277,29.9637,57.79,51,{'all': 46},2.98,RU,1681225700
90,te anau,-45.4167,167.7167,51.76,97,{'all': 99},3.89,NZ,1681225700
91,bundaberg,-24.85,152.35,62.22,90,{'all': 5},6.6,AU,1681225700
92,oranjemund,-28.55,16.4333,69.85,43,{'all': 74},17.74,,1681225700
93,kaitong,44.8135,123.15,36.79,17,{'all': 20},19.91,CN,1681225701
94,cururupu,-1.8283,-44.8683,83.52,77,{'all': 96},4.03,BR,1681225701
95,virginia beach,36.8529,-75.978,64.02,38,{'all': 0},4.61,US,1681225509
96,sao joao da barra,-21.6403,-41.0511,82.49,62,{'all': 85},7.27,BR,1681225702
97,auki,-8.7676,160.7034,76.71,91,{'all': 100},3.27,SB,1681225703
98,chifeng,42.2683,118.9636,39.22,15,{'all': 0},15.19,CN,1681225605
99,nyurba,63.2842,118.3319,0.48,96,{'all': 23},4.47,RU,1681225704
100,blagoyevo,63.3667,47.9167,34.3,91,{'all': 100},7.29,RU,1681225706
101,bethel,41.3712,-73.414,69.12,33,{'all': 0},10.36,US,1681225707
102,alice springs,-23.7,133.8833,71.15,35,{'all': 95},5.75,AU,1681225707
103,huambo,-12.7761,15.7392,71.71,67,{'all': 100},6.42,AO,1681225708
104,slave lake,55.2834,-114.769,28.38,80,{'all': 100},2.3,CA,1681225545
105,ulaangom,49.9811,92.0667,26.69,48,{'all': 40},3.6,MN,1681225708
106,santa cruz do sul,-29.7175,-52.4258,91.54,33,{'all': 0},1.57,BR,1681225446
107,esil,51.9556,66.4042,38.73,51,{'all': 6},4.34,KZ,1681225711
108,plouzane,48.3833,-4.6167,51.98,90,{'all': 100},27.63,FR,1681225713
109,jacksonville beach,30.2947,-81.3931,70.03,86,{'all': 100},18.41,US,1681225554
110,hambantota,6.1241,81.1185,82.74,89,{'all': 20},4.61,LK,1681225660
111,pontianak,-0.0333,109.3333,78.78,88,{'all': 20},3.44,ID,1681225713
112,biltine,14.5333,20.9167,106.5,6,{'all': 27},8.1,TD,1681225714
113,kodiak,57.79,-152.4072,31.51,64,{'all': 100},3.44,US,1681225714
114,atuona,-9.8,-139.0333,80.2,82,{'all': 95},15.59,PF,1681225714
115,karratha,-20.7377,116.8463,85.44,50,{'all': 82},9.19,AU,1681225714
116,lebu,-37.6167,-73.65,61.88,82,{'all': 55},6.33,CL,1681225714
117,katsuura,35.1333,140.3,62.87,73,{'all': 99},26.26,JP,1681225714
118,mar del plata,-38.0023,-57.5575,76.82,74,{'all': 0},17.27,AR,1681225715
119,saskylakh,71.9167,114.0833,-12.75,99,{'all': 45},5.5,RU,1681225716
120,zeya,53.75,127.2667,31.12,90,{'all': 100},5.37,RU,1681225717
121,ondjiva,-17.0667,15.7333,92.82,17,{'all': 7},7.49,AO,1681225717
122,castro,-24.7911,-50.0119,71.64,53,{'all': 5},4.43,BR,1681225718
123,cabo san lucas,22.8909,-109.9124,82.71,30,{'all': 20},8.05,MX,1681225546
124,labrea,-7.2586,-64.7981,86.61,68,{'all': 72},0.45,BR,1681225718
125,marsa matruh,31.3525,27.2453,61.65,56,{'all': 28},16.31,EG,1681225718
126,hamilton,39.1834,-84.5333,68.67,40,{'all': 0},9.22,US,1681225719
127,coruripe,-10.1256,-36.1756,84.81,56,{'all': 100},9.71,BR,1681225719
128,sioux lookout,50.1001,-91.917,43.83,79,{'all': 99},2.57,CA,1681225719
129,awbari,26.5921,12.7805,79.05,11,{'all': 40},13.65,LY,1681225719
130,sitka,57.0531,-135.33,33.69,80,{'all': 40},0.0,US,1681225720
131,port-cartier,50.0334,-66.8654,45.75,72,{'all': 64},6.44,CA,1681225720
132,mayo,38.8876,-76.5119,67.35,42,{'all': 0},4.61,US,1681225720
133,kamenka,51.3223,42.7678,57.0,35,{'all': 91},7.85,RU,1681225720
134,alta floresta,-9.8756,-56.0861,82.22,83,{'all': 40},3.44,BR,1681225500
135,anori,-3.7728,-61.6442,89.26,56,{'all': 98},3.09,BR,1681225721
136,san patricio,28.017,-97.5169,69.75,75,{'all': 0},10.76,US,1681225721
137,butka,56.7179,63.7866,37.92,52,{'all': 56},5.5,RU,1681225721
138,nikolskoye,59.7035,30.7861,58.89,69,{'all': 100},4.34,RU,1681225722
139,pozo colorado,-23.4923,-58.7972,87.17,51,{'all': 1},9.01,PY,1681225722
140,koslan,63.4564,48.8989,33.76,94,{'all': 100},7.09,RU,1681225722
141,khatanga,71.9667,102.5,7.95,79,{'all': 100},18.03,RU,1681225722
142,sao luis de montes belos,-16.525,-50.3722,84.0,57,{'all': 37},3.94,BR,1681225723
143,sidney,-33.8679,151.2073,59.63,79,{'all': 0},8.05,AU,1681225500
144,pangnirtung,66.1451,-65.7125,17.02,65,{'all': 17},0.25,CA,1681225723
145,margate,51.3813,1.3862,51.69,75,{'all': 100},1.99,GB,1681225723
146,klyuchi,52.2667,79.1667,35.17,42,{'all': 100},9.26,RU,1681225723
147,peace river,56.2501,-117.286,35.65,77,{'all': 100},4.52,CA,1681225698
148,lasa,46.6166,10.7002,60.69,78,{'all': 100},5.66,IT,1681225724
149,san juan,-31.5375,-68.5364,76.75,46,{'all': 100},10.45,AR,1681225417
150,roncesvalles,4.0108,-75.6049,64.67,64,{'all': 44},5.12,CO,1681225724
151,victor harbor,-35.5667,138.6167,63.68,87,{'all': 23},19.84,AU,1681225724
152,cayenne,4.9333,-52.3333,86.04,66,{'all': 75},11.5,GF,1681225590
153,san quintin,30.4833,-115.95,58.26,82,{'all': 10},7.94,MX,1681225725
154,daru,-9.0763,143.2092,79.95,83,{'all': 90},5.66,PG,1681225725
155,ghanzi,-21.5667,21.7833,83.61,27,{'all': 1},6.87,BW,1681225725
156,tiznit,29.5833,-9.5,87.04,6,{'all': 1},2.75,MA,1681225725
157,korla,41.7597,86.1469,62.17,22,{'all': 39},4.23,CN,1681225725
158,upernavik,72.7868,-56.1549,11.21,87,{'all': 60},11.95,GL,1681225726
159,chany,55.3121,76.7647,26.71,69,{'all': 100},10.42,RU,1681225726
160,tasiilaq,65.6145,-37.6368,37.56,88,{'all': 100},14.16,GL,1681225726
161,telde,27.9924,-15.4192,79.05,53,{'all': 20},12.66,ES,1681225726
162,batemans bay,-35.7167,150.1833,60.1,87,{'all': 86},4.47,AU,1681225726
163,talnakh,69.4865,88.3972,-15.56,98,{'all': 74},5.12,RU,1681225727
164,mayahi,13.9553,7.6712,104.2,8,{'all': 21},14.38,NE,1681225727
165,sur,22.5667,59.5289,82.94,58,{'all': 99},2.66,OM,1681225727
166,barrow,71.2906,-156.7887,-23.78,83,{'all': 0},10.36,US,1681225727
167,torbay,47.6666,-52.7314,50.88,42,{'all': 5},13.0,CA,1681225727
168,kavieng,-2.5744,150.7967,80.35,77,{'all': 98},2.19,PG,1681225728
169,shimoda,34.6667,138.95,62.1,82,{'all': 93},16.15,JP,1681225690
170,bubaque,11.2833,-15.8333,78.98,59,{'all': 15},11.23,GW,1681225728
171,el juncal,15.45,-86.4333,84.18,48,{'all': 85},3.09,HN,1681225729
172,cockburn town,21.4612,-71.1419,77.85,75,{'all': 4},5.86,TC,1681225729
173,sant julia de loria,42.4625,1.4825,71.94,38,{'all': 74},8.28,AD,1681225729
174,tura,25.5198,90.2201,76.51,21,{'all': 0},3.53,IN,1681225527
175,semirom,31.4167,51.5667,54.36,43,{'all': 90},13.69,IR,1681225729
176,malartic,48.1335,-78.1328,44.96,83,{'all': 100},13.6,CA,1681225730
177,navashino,55.5292,42.2003,55.18,44,{'all': 84},1.88,RU,1681225730
178,saint-philippe,-21.3585,55.7679,80.19,83,{'all': 92},2.59,RE,1681225730
179,thompson,55.7435,-97.8558,35.76,48,{'all': 75},0.0,CA,1681225204
180,klaksvik,62.2266,-6.589,45.52,79,{'all': 88},6.13,FO,1681225630
181,marsh harbour,26.5412,-77.0636,72.07,69,{'all': 100},29.64,BS,1681225562
182,provideniya,64.3833,-173.3,-9.49,95,{'all': 99},12.39,RU,1681225731
183,faya,18.3851,42.4509,64.92,51,{'all': 58},8.86,SA,1681225731
184,havelock,34.8791,-76.9013,64.98,35,{'all': 0},8.05,US,1681225731
185,selma,36.5708,-119.6121,61.02,91,{'all': 0},6.91,US,1681225673
186,le port,-20.9373,55.2919,80.6,91,{'all': 86},8.01,RE,1681225731
187,mahibadhoo,3.7833,72.9667,84.11,72,{'all': 24},11.54,MV,1681225732
188,gusau,12.1628,6.6614,103.78,8,{'all': 67},11.18,NG,1681225732
189,kununurra,-15.7667,128.7333,76.98,100,{'all': 73},4.61,AU,1681225732
190,farafangana,-22.8167,47.8333,77.04,80,{'all': 0},6.35,MG,1681225732
191,itanhem,-17.1664,-40.33,76.01,78,{'all': 99},8.84,BR,1681225733
192,mount isa,-20.7333,139.5,62.37,67,{'all': 59},0.0,AU,1681225733
193,coihaique,-45.5752,-72.0662,45.21,81,{'all': 0},5.75,CL,1681225733
194,norman wells,65.282,-126.8329,12.74,93,{'all': 94},5.59,CA,1681225733
195,kalmunai,7.4167,81.8167,81.57,74,{'all': 16},7.25,LK,1681225733
196,ust-nera,64.5667,143.2,-4.74,97,{'all': 92},3.89,RU,1681225734
197,yurty,56.0498,97.6348,30.92,83,{'all': 100},13.47,RU,1681225734
198,souillac,-20.5167,57.5167,78.85,81,{'all': 86},7.87,MU,1681225665
199,luderitz,-26.6481,15.1594,73.9,38,{'all': 22},12.37,,1681225734
200,hakodate,41.7758,140.7367,51.01,88,{'all': 98},9.73,JP,1681225460
201,missao velha,-7.2497,-39.1431,94.28,34,{'all': 31},1.61,BR,1681225735
202,irati,-25.4672,-50.6511,76.93,50,{'all': 18},2.68,BR,1681225735
203,port alfred,-33.5906,26.891,64.18,74,{'all': 39},7.0,ZA,1681225735
204,matay,28.419,30.7792,75.6,19,{'all': 3},12.46,EG,1681225735
205,bambous virieux,-20.3428,57.7575,78.22,80,{'all': 87},10.56,MU,1681225735
206,chicama,-7.8447,-79.1469,81.14,76,{'all': 91},6.82,PE,1681225735
207,vila franca do campo,37.7167,-25.4333,64.81,70,{'all': 87},11.88,PT,1681225736
208,bac lieu,9.285,105.7244,82.06,77,{'all': 14},10.54,VN,1681225736
209,adrar,20.5022,-10.0711,94.73,19,{'all': 84},16.24,MR,1681225736
210,acapulco,16.8634,-99.8901,84.02,65,{'all': 40},0.0,MX,1681225504
211,tessalit,20.1986,1.0114,91.08,9,{'all': 100},17.0,ML,1681225737
212,eureka,40.8021,-124.1637,48.74,94,{'all': 34},1.99,US,1681225702
213,lorengau,-2.0226,147.2712,79.7,82,{'all': 98},7.38,PG,1681225737
214,carlisle,40.2015,-77.1889,67.19,33,{'all': 99},1.99,US,1681225717
215,nome,64.5011,-165.4064,-17.84,76,{'all': 0},0.0,US,1681225737
216,touros,-5.1989,-35.4608,85.71,59,{'all': 95},11.59,BR,1681225615
217,naze,28.3667,129.4833,65.55,90,{'all': 90},8.77,JP,1681225738
218,kaitangata,-46.2817,169.8464,54.37,97,{'all': 99},6.96,NZ,1681225738
219,vardo,70.3705,31.1107,35.58,80,{'all': 75},12.66,NO,1681225738
220,torbat-e jam,35.244,60.6225,76.23,21,{'all': 20},7.61,IR,1681225738
221,moerai,-22.4333,-151.3333,78.31,73,{'all': 88},10.25,PF,1681225738
222,mnogovershinnyy,53.9353,139.9242,20.89,79,{'all': 99},8.01,RU,1681225739
223,praia da vitoria,38.7333,-27.0667,75.45,46,{'all': 20},12.41,PT,1681225487
224,cherskiy,68.75,161.3,-17.91,96,{'all': 98},2.15,RU,1681225739
225,mount gambier,-37.8333,140.7667,54.64,91,{'all': 100},14.92,AU,1681225740
226,faanui,-16.4833,-151.75,80.64,74,{'all': 100},6.17,PF,1681225740
227,yeppoon,-23.1333,150.7333,62.38,62,{'all': 4},3.47,AU,1681225740
228,ilulissat,69.2167,-51.1,44.62,33,{'all': 20},10.36,GL,1681225740
229,yar-sale,66.8333,70.8333,-12.69,95,{'all': 9},6.62,RU,1681225740
230,kashi,39.4547,75.9797,66.96,20,{'all': 100},3.98,CN,1681225740
231,smolenka,52.1352,113.4974,24.87,33,{'all': 3},15.66,RU,1681225741
232,port lincoln,-34.7333,135.8667,64.63,81,{'all': 26},22.59,AU,1681225741
233,nola,40.922,14.5329,66.16,56,{'all': 49},8.5,IT,1681225741
234,tabou,4.423,-7.3528,84.29,70,{'all': 100},9.57,CI,1681225741
235,katobu,-4.9408,122.5276,76.42,91,{'all': 8},1.68,ID,1681225741
236,otjimbingwe,-22.35,16.1333,91.65,12,{'all': 4},17.85,,1681225742
237,hilo,19.7297,-155.09,69.28,91,{'all': 75},7.0,US,1681225742
238,manggar,-2.8833,108.2667,79.56,84,{'all': 9},7.56,ID,1681225742
239,rolla,37.9514,-91.7713,69.06,53,{'all': 0},12.66,US,1681225743
240,riberalta,-10.9833,-66.1,76.75,87,{'all': 99},2.26,BO,1681225743
241,tomatlan,19.9333,-105.25,80.94,32,{'all': 0},2.35,MX,1681225743
242,uberlandia,-18.9186,-48.2772,78.64,62,{'all': 75},9.73,BR,1681225628
243,kabinda,-6.1333,24.4833,74.62,79,{'all': 99},0.87,CD,1681225743
244,avera,33.194,-82.5271,63.55,50,{'all': 0},8.41,US,1681225744
245,freeport,40.6576,-73.5832,68.49,40,{'all': 0},10.36,US,1681225744
246,elliot,-31.3333,27.85,59.32,32,{'all': 16},4.59,ZA,1681225744
247,ingham,42.6,-84.3833,66.38,37,{'all': 0},16.11,US,1681225746
248,bandarbeyla,9.4942,50.8122,82.53,74,{'all': 11},11.63,SO,1681225746
249,khandbari,27.3747,87.2039,69.91,30,{'all': 23},3.65,NP,1681225747
250,tadine,-21.55,167.8833,76.53,84,{'all': 84},3.02,NC,1681225747
251,jumla,29.2747,82.1838,50.18,55,{'all': 61},4.79,NP,1681225747
252,tuatapere,-46.1333,167.6833,53.89,96,{'all': 100},4.54,NZ,1681225748
253,vila velha,-20.3297,-40.2925,80.55,77,{'all': 75},8.05,BR,1681225716
254,sao gabriel da cachoeira,-0.1303,-67.0892,89.55,56,{'all': 67},1.52,BR,1681225749
255,fortuna,40.5982,-124.1573,47.66,95,{'all': 43},3.24,US,1681225751
256,yumen,40.2833,97.2,55.49,19,{'all': 73},2.19,CN,1681225753
257,villamontes,-21.25,-63.5,88.7,37,{'all': 0},6.06,BO,1681225753
258,foca,38.6703,26.7566,57.07,63,{'all': 14},21.79,TR,1681225753
259,sorland,67.667,12.6934,46.26,78,{'all': 100},19.89,NO,1681225753
260,togur,58.3631,82.8265,17.08,82,{'all': 99},12.75,RU,1681225753
261,nanortalik,60.1432,-45.2371,32.95,98,{'all': 100},2.3,GL,1681225753
262,port-gentil,-0.7193,8.7815,80.56,94,{'all': 75},5.75,GA,1681225756
263,makakilo city,21.3469,-158.0858,71.92,83,{'all': 0},8.05,US,1681225757
264,dunedin,-45.8742,170.5036,55.18,96,{'all': 100},4.94,NZ,1681225578
265,kolondieba,11.0882,-6.8926,97.27,23,{'all': 72},7.81,ML,1681225757
266,namatanai,-3.6667,152.4333,78.4,86,{'all': 100},5.17,PG,1681225759
267,iguape,-24.7081,-47.5553,75.38,68,{'all': 62},4.03,BR,1681225759
268,briceno,7.111,-75.5515,75.58,77,{'all': 82},2.55,CO,1681225759
269,yulara,-25.2406,130.9889,75.4,70,{'all': 100},18.77,AU,1681225760
270,uchaly,54.2996,59.4521,41.99,53,{'all': 7},3.11,RU,1681225761
271,ternate,0.8,127.4,81.25,80,{'all': 75},4.97,ID,1681225763
272,khash,28.2211,61.2158,76.75,14,{'all': 15},11.27,IR,1681225763
273,south venice,27.0531,-82.4243,78.84,63,{'all': 20},23.02,US,1681225764
274,kyshtovka,56.555,76.6271,21.56,80,{'all': 100},7.63,RU,1681225767
275,bontang,0.1333,117.5,79.83,86,{'all': 82},5.91,ID,1681225768
276,pacific grove,36.6177,-121.9166,55.51,88,{'all': 75},8.01,US,1681225768
277,birin,26.8865,88.0718,63.18,31,{'all': 0},6.64,NP,1681225769
278,mujiayingzi,42.1167,118.7833,38.26,15,{'all': 0},16.6,CN,1681225769
279,hobyo,5.3505,48.5268,84.31,69,{'all': 1},15.66,SO,1681225769
280,porto novo,6.4965,2.6036,89.42,58,{'all': 81},12.95,BJ,1681225563
281,catalina,32.5056,-110.9211,81.09,24,{'all': 0},4.32,US,1681225769
282,havoysund,70.9963,24.6622,35.83,75,{'all': 44},7.65,NO,1681225771
283,lata,40.1629,-8.3327,68.07,43,{'all': 41},10.42,PT,1681225771
284,carnarvon,-24.8667,113.6333,71.91,67,{'all': 0},23.11,AU,1681225772
285,whitehorse,60.7161,-135.0538,12.97,73,{'all': 0},3.44,CA,1681225498
286,beroroha,-21.6667,45.1667,81.09,55,{'all': 5},4.25,MG,1681225772
287,vila,42.0304,-8.1588,59.7,67,{'all': 100},9.08,PT,1681225775
288,santa engracia,41.9406,-1.3245,79.14,29,{'all': 62},3.49,ES,1681225777
289,boulder city,35.9786,-114.8325,73.78,20,{'all': 0},0.0,US,1681225777
290,chernyshevskiy,63.0128,112.4714,14.09,86,{'all': 39},10.8,RU,1681225788
291,honiara,-9.4333,159.95,76.93,89,{'all': 87},1.48,SB,1681225572
292,molteno,-31.3968,26.3625,59.77,18,{'all': 8},8.52,ZA,1681225788
293,candido de abreu,-24.5669,-51.3333,80.24,46,{'all': 8},2.33,BR,1681225788
294,padang,-0.9492,100.3543,82.45,87,{'all': 100},3.47,ID,1681225789
295,moose factory,51.2585,-80.6094,40.71,85,{'all': 100},18.12,CA,1681225789
296,sao filipe,14.8961,-24.4956,71.58,66,{'all': 100},4.65,CV,1681225791
297,ponor,43.1637,22.4508,43.47,94,{'all': 100},4.18,RS,1681225792
298,hasaki,35.7333,140.8333,63.28,69,{'all': 100},31.27,JP,1681225793
299,christchurch,-43.5333,172.6333,54.91,84,{'all': 40},6.91,NZ,1681225722
300,wanning,18.8003,110.3967,76.55,91,{'all': 64},7.63,CN,1681225794
301,greensburg,40.3015,-79.5389,65.62,37,{'all': 0},9.22,US,1681225554
302,panjab,34.388,67.0233,42.46,50,{'all': 3},3.8,AF,1681225795
303,abu samrah,35.3029,37.1841,60.42,54,{'all': 94},13.56,SY,1681225795
304,susanville,40.4163,-120.653,51.64,54,{'all': 100},6.91,US,1681225795
305,nishihara,26.1842,127.7558,71.65,91,{'all': 75},8.05,JP,1681225795
306,lovington,32.944,-103.3485,71.33,42,{'all': 0},7.0,US,1681225795
307,narsaq,60.9167,-46.05,46.62,91,{'all': 99},5.23,GL,1681225796
308,port hardy,50.6996,-127.4199,38.01,87,{'all': 100},6.58,CA,1681225796
309,pierre,44.3683,-100.351,66.27,38,{'all': 0},11.5,US,1681225796
310,poum,-20.2333,164.0167,79.07,78,{'all': 6},7.7,NC,1681225796
311,isangel,-19.55,169.2667,79.79,85,{'all': 96},4.29,VU,1681225796
312,novyy urengoy,66.0833,76.6333,-5.35,97,{'all': 98},10.83,RU,1681225797
313,rio grande,-32.035,-52.0986,86.11,63,{'all': 0},7.56,BR,1681225572
314,la rioja,42.25,-2.5,65.98,30,{'all': 52},5.03,ES,1681225660
315,flin flon,54.7682,-101.865,36.75,90,{'all': 100},1.92,CA,1681225797
316,rio gallegos,-51.6226,-69.2181,46.45,53,{'all': 75},25.32,AR,1681225797
317,amga,60.8953,131.9608,15.28,95,{'all': 100},3.89,RU,1681225798
318,buritis,-15.6178,-46.4233,84.67,51,{'all': 57},5.79,BR,1681225798
319,nemuro,43.3236,145.575,42.78,79,{'all': 100},19.62,JP,1681225798
320,tokur,53.1333,132.9,25.36,93,{'all': 100},5.88,RU,1681225798
321,naryan-mar,67.6713,53.087,18.23,96,{'all': 99},6.67,RU,1681225798
322,yerbogachen,61.2767,108.0108,24.48,91,{'all': 100},16.55,RU,1681225798
323,baykit,61.67,96.37,23.81,93,{'all': 100},6.6,RU,1681225610
324,attendorn,51.1265,7.9033,56.16,50,{'all': 74},11.92,DE,1681225799
325,quatre cocos,-20.2078,57.7625,78.1,82,{'all': 86},10.33,MU,1681225799
326,irbil,36.1926,44.0106,71.87,45,{'all': 100},5.48,IQ,1681225799
327,ahipara,-35.1667,173.1667,62.69,91,{'all': 99},10.36,NZ,1681225800
328,kloulklubed,7.0419,134.2556,82.87,76,{'all': 89},5.82,PW,1681225800
329,axim,4.8699,-2.2405,86.34,64,{'all': 94},11.56,GH,1681225800
330,shellbrook,53.2168,-106.4011,36.63,89,{'all': 100},8.93,CA,1681225801
331,henties bay,-22.116,14.2845,64.81,67,{'all': 5},5.53,,1681225801
332,bengkulu,-3.8004,102.2655,77.77,85,{'all': 91},2.82,ID,1681225801
333,east london,-33.0153,27.9116,68.99,47,{'all': 28},18.84,ZA,1681225801
334,thunder bay,48.4001,-89.3168,42.21,96,{'all': 100},7.96,CA,1681225607
335,zanesville,39.9404,-82.0132,66.58,33,{'all': 0},4.61,US,1681225802
336,apiai,-24.5094,-48.8425,73.17,42,{'all': 4},3.96,BR,1681225812
337,bosobolo,4.1833,19.9,79.45,71,{'all': 100},7.07,CD,1681225812
338,mancora,-4.1078,-81.0475,81.77,72,{'all': 90},3.11,PE,1681225813
339,airai,-8.9266,125.4092,60.94,94,{'all': 24},2.1,TL,1681225823
340,divnogorsk,55.9594,92.3619,30.69,76,{'all': 81},14.12,RU,1681225823
341,ribeira grande,38.5167,-28.7,66.6,82,{'all': 40},13.0,PT,1681225834
342,festus,38.2206,-90.396,71.58,53,{'all': 0},6.89,US,1681225586
343,manta,-0.95,-80.7333,85.78,74,{'all': 40},4.61,EC,1681225650
344,gondanglegi,-7.7479,112.0132,75.24,92,{'all': 77},5.61,ID,1681225834
345,micheldorf,46.9222,14.4405,60.71,54,{'all': 85},4.41,AT,1681225834
346,pauini,-7.7136,-66.9764,86.95,64,{'all': 88},1.48,BR,1681225835
347,manaure,11.7751,-72.4445,85.12,61,{'all': 94},10.25,CO,1681225835
348,pevek,69.7008,170.3133,-23.94,100,{'all': 58},3.85,RU,1681225835
349,oussouye,12.485,-16.5469,93.25,27,{'all': 5},10.63,SN,1681225846
350,tilichiki,60.4667,166.1,3.33,90,{'all': 100},8.75,RU,1681225846
351,rasnov,45.5833,25.45,48.85,57,{'all': 100},9.22,RO,1681225846
352,goderich,43.7501,-81.7165,52.92,69,{'all': 100},16.28,CA,1681225846
353,ekimchan,53.0667,132.9667,30.49,93,{'all': 100},5.68,RU,1681225854
354,korem,12.5058,39.5228,64.24,69,{'all': 9},7.65,ET,1681225856
355,jaru,-10.4389,-62.4664,83.03,77,{'all': 98},2.8,BR,1681225856
356,yanino,59.9355,30.6153,58.66,44,{'all': 100},5.73,RU,1681225857
357,impfondo,1.6381,18.0667,70.61,97,{'all': 100},4.97,CG,1681225858
358,sobolevo,54.4299,31.8996,56.1,54,{'all': 77},5.39,RU,1681225858
359,batesville,35.7698,-91.641,67.08,59,{'all': 0},1.01,US,1681225858
360,antofagasta,-23.65,-70.4,72.68,64,{'all': 36},6.4,CL,1681225858
361,yunyang,33.4474,112.7142,60.89,39,{'all': 0},3.58,CN,1681225859
362,umarga,17.8333,76.6167,96.31,14,{'all': 59},4.65,IN,1681225859
363,saldanha,-33.0117,17.9442,60.93,69,{'all': 82},15.14,ZA,1681225859
364,moisei,47.6556,24.5401,49.87,63,{'all': 53},4.9,RO,1681225859
365,stokmarknes,68.5646,14.9108,46.38,53,{'all': 0},13.8,NO,1681225860
366,sehithwa,-20.4667,22.7167,88.81,23,{'all': 37},4.61,BW,1681225860
367,novyy urgal,51.0736,132.5642,33.73,80,{'all': 97},5.06,RU,1681225860
368,tiksi,71.6872,128.8694,-13.92,100,{'all': 100},1.41,RU,1681225860
369,ballachulish,56.6774,-5.1308,50.41,62,{'all': 71},12.26,GB,1681225860
370,saint-augustin,51.226,-58.6502,34.7,94,{'all': 94},11.63,CA,1681225861
371,murgab,37.4966,61.9714,79.39,23,{'all': 64},11.92,TM,1681225861
372,flinders,-34.5833,150.8552,57.38,82,{'all': 83},4.0,AU,1681225861
373,leningradskiy,69.3833,178.4167,-12.68,95,{'all': 99},6.64,RU,1681225862
374,geraldton,-28.7667,114.6,59.41,77,{'all': 0},4.61,AU,1681225862
375,komsomolskiy,40.4272,71.7189,65.12,48,{'all': 100},0.0,UZ,1681225864
376,dingle,10.9995,122.6711,75.67,77,{'all': 100},4.21,PH,1681225865
377,shaowu,27.3409,117.4831,66.72,97,{'all': 53},1.12,CN,1681225865
378,soyo,-6.1349,12.3689,83.57,72,{'all': 100},6.8,AO,1681225869
379,uige,-7.6087,15.0613,75.6,85,{'all': 97},2.66,AO,1681225871
380,port elizabeth,-33.918,25.5701,65.1,72,{'all': 86},5.99,ZA,1681225874
381,parana,-31.732,-60.5238,83.55,65,{'all': 97},8.84,AR,1681225884
382,namibe,-15.1961,12.1522,77.49,68,{'all': 57},8.48,AO,1681225897
383,bull savanna,17.8868,-77.5902,79.65,63,{'all': 0},4.16,JM,1681225897
384,potiskum,11.7091,11.0694,104.27,8,{'all': 99},12.24,NG,1681225897
385,paris,48.8534,2.3488,58.37,61,{'all': 75},13.8,FR,1681225666
386,longyearbyen,78.2186,15.6401,26.44,86,{'all': 75},6.91,SJ,1681225898
387,kiama,-34.6833,150.8667,61.0,83,{'all': 93},6.2,AU,1681225898
388,pak phanang,8.3511,100.202,82.89,73,{'all': 30},3.42,TH,1681225762
389,puerto ayora,-0.7393,-90.3518,85.96,85,{'all': 39},4.0,EC,1681225901
390,rozzano,45.3819,9.1606,69.66,52,{'all': 20},9.22,IT,1681225901
391,villa guerrero,18.8667,-99.65,67.62,54,{'all': 36},2.84,MX,1681225901
392,ossora,59.2353,163.0719,9.91,95,{'all': 100},11.86,RU,1681225902
393,weihe,32.9952,105.3247,61.57,77,{'all': 87},3.94,CN,1681225902
394,sola,-13.8833,167.55,82.49,74,{'all': 79},7.9,VU,1681225902
395,khonsa,27.0167,95.5667,63.73,54,{'all': 0},4.97,IN,1681225902
396,wang saphung,17.301,101.7685,94.08,54,{'all': 98},2.95,TH,1681225902
397,ostrovnoy,68.0531,39.5131,33.82,96,{'all': 100},13.98,RU,1681225903
398,seara,41.1818,-7.8003,66.16,37,{'all': 96},8.7,PT,1681225903
399,hohhot,40.8106,111.6522,40.73,28,{'all': 0},3.83,CN,1681225903
400,linhares,-19.3911,-40.0722,83.1,53,{'all': 63},10.13,BR,1681225665
401,chengde,40.9725,117.9361,42.71,15,{'all': 0},7.87,CN,1681225903
402,kendari,-3.945,122.4989,77.41,90,{'all': 14},1.07,ID,1681225904
403,lima,-12.0432,-77.0282,79.05,65,{'all': 75},11.5,PE,1681225666
404,brae,60.3964,-1.353,46.99,76,{'all': 100},10.36,GB,1681225904
405,smithers,54.7804,-127.1743,33.31,94,{'all': 100},1.21,CA,1681225904
406,griffith,41.5284,-87.4237,68.47,47,{'all': 0},11.5,US,1681225904
407,bria,6.5423,21.9863,84.9,51,{'all': 98},4.34,CF,1681225905
408,vilcun,-38.65,-72.2333,61.54,74,{'all': 32},3.74,CL,1681225905
409,koumac,-20.5667,164.2833,76.39,85,{'all': 6},4.5,NC,1681225905
410,pampa,35.5362,-100.9599,65.57,59,{'all': 0},16.11,US,1681225905
411,solnechnyy,50.7214,136.6319,34.32,99,{'all': 100},2.84,RU,1681225905
412,gijon,43.5357,-5.6615,66.45,66,{'all': 73},8.99,ES,1681225821
413,valcourt,45.5001,-72.3158,54.52,54,{'all': 100},13.27,CA,1681225906
414,siparia,10.1333,-61.5,87.82,65,{'all': 100},9.57,TT,1681225906
415,skjervoy,70.0311,20.9714,39.2,72,{'all': 0},11.54,NO,1681225906
416,hamburg,53.55,10.0,49.15,84,{'all': 75},10.36,DE,1681225258
417,vao,-22.6667,167.4833,76.15,79,{'all': 61},3.31,NC,1681225907
418,key west,24.5557,-81.7826,79.0,75,{'all': 75},16.11,US,1681225081
419,alofi,-19.0595,-169.9187,80.42,62,{'all': 73},20.49,NU,1681225907
420,norrtalje,59.758,18.705,53.78,70,{'all': 41},9.15,SE,1681225907
421,kumano,34.3442,132.5894,59.92,90,{'all': 100},7.11,JP,1681225907
422,floro,61.5996,5.0328,51.87,81,{'all': 75},17.27,NO,1681225908
423,simpang,-1.2667,104.0833,76.69,92,{'all': 94},2.13,ID,1681225908
424,eregli,37.5133,34.0467,58.69,33,{'all': 66},15.86,TR,1681225908
425,aksu,41.1231,80.2644,66.56,13,{'all': 11},21.81,CN,1681225908
426,kundla,21.3333,71.3,92.01,24,{'all': 100},11.39,IN,1681225909
427,bahile,9.9995,118.7878,80.47,81,{'all': 81},4.25,PH,1681225909
428,aswan,24.0934,32.907,86.95,15,{'all': 85},12.91,EG,1681225909
429,puerto madero,14.7208,-92.4215,88.0,58,{'all': 0},3.44,MX,1681225909
430,creel,27.75,-107.6333,56.12,59,{'all': 67},8.97,MX,1681225909
431,del rio,29.3627,-100.8968,67.23,77,{'all': 100},10.36,US,1681225910
432,port macquarie,-31.4333,152.9167,52.9,75,{'all': 74},6.85,AU,1681225910
433,uaua,-9.8414,-39.4817,91.2,27,{'all': 55},8.88,BR,1681225910
434,kanungu,-0.9575,29.7897,70.3,75,{'all': 86},4.09,UG,1681225910
435,vigrestad,58.5667,5.7,47.25,94,{'all': 100},7.47,NO,1681225910
436,northam,51.0333,-4.2167,49.24,94,{'all': 100},28.74,GB,1681225911
437,la orilla,17.9833,-102.2333,81.21,60,{'all': 93},1.95,MX,1681225911
438,road town,18.4167,-64.6167,82.49,65,{'all': 40},8.05,VG,1681225911
439,hofn,64.2539,-15.2082,41.47,82,{'all': 98},2.57,IS,1681225911
440,erenhot,43.6475,111.9767,37.99,18,{'all': 0},11.56,CN,1681225912
441,aripuana,-9.1667,-60.6333,87.44,60,{'all': 98},2.51,BR,1681225908
442,gornopravdinsk,60.05,69.9,30.49,91,{'all': 100},8.39,RU,1681225912
443,ottawa,45.4112,-75.6981,57.43,48,{'all': 75},12.66,CA,1681225202
444,columbus,39.9612,-82.9988,67.95,38,{'all': 0},6.91,US,1681225913
445,hefei,31.8639,117.2808,59.95,58,{'all': 99},8.34,CN,1681225728
446,didwana,27.4,74.5667,88.52,17,{'all': 91},11.1,IN,1681225913
447,juneau,58.3019,-134.4197,31.21,97,{'all': 40},0.0,US,1681225723
448,rundu,-17.9333,19.7667,87.98,25,{'all': 71},5.99,,1681225914
449,chumikan,54.7183,135.315,24.33,84,{'all': 100},24.23,RU,1681225914
450,guerrero negro,27.9769,-114.0611,59.61,79,{'all': 0},11.39,MX,1681225914
451,newcastle,-32.9272,151.7765,62.71,79,{'all': 40},5.75,AU,1681225785
452,rumonge,-3.9736,29.4386,77.83,81,{'all': 100},5.57,BI,1681225914
453,colquechaca,-18.6667,-66.0167,43.2,47,{'all': 16},2.73,BO,1681225897
454,varkaus,62.3153,27.873,37.42,99,{'all': 100},2.73,FI,1681225915
455,vawkavysk,53.1561,24.4513,54.3,62,{'all': 100},8.3,BY,1681225915
456,urumqi,43.801,87.6005,56.35,36,{'all': 75},4.47,CN,1681225915
457,waverley,-25.7023,28.2591,76.32,3,{'all': 0},5.5,ZA,1681225915
458,kiruna,67.8557,20.2251,38.32,60,{'all': 0},9.22,SE,1681225915
459,bodmin,50.4715,-4.7243,49.96,93,{'all': 75},26.46,GB,1681225916
460,xiuyan,40.2928,123.2744,42.69,18,{'all': 0},10.56,CN,1681225916
461,san andres,12.5847,-81.7006,86.02,66,{'all': 20},9.22,CO,1681225912
462,paamiut,61.994,-49.6678,29.64,89,{'all': 15},6.44,GL,1681225916
463,codrington,-38.2667,141.9667,53.65,89,{'all': 100},15.08,AU,1681225916
464,salamanca,40.8333,-6.0,71.38,35,{'all': 58},14.97,ES,1681225917
465,springdale,36.1867,-94.1288,67.05,66,{'all': 100},4.61,US,1681225765
466,savannah bight,16.45,-85.85,78.04,67,{'all': 32},0.67,HN,1681225917
467,russell,32.3502,-85.1999,66.96,39,{'all': 0},5.75,US,1681225917
468,mana,5.6592,-53.7767,85.39,64,{'all': 92},9.08,GF,1681225917
469,buala,-8.145,159.5921,78.93,80,{'all': 99},2.53,SB,1681225918
470,kapustin yar,48.5831,45.7372,61.38,35,{'all': 82},13.11,RU,1681225918
471,the valley,18.217,-63.0578,82.81,79,{'all': 5},16.11,AI,1681225918
472,san cristobal,7.7669,-72.225,77.18,52,{'all': 86},5.77,VE,1681225918
473,rawson,-43.3002,-65.1023,56.64,66,{'all': 100},20.94,AR,1681225919
474,mackay,-21.15,149.2,69.67,78,{'all': 14},5.14,AU,1681225919
475,lagos,6.5833,3.75,89.42,56,{'all': 51},11.25,NG,1681225800
476,uporovo,56.3109,66.2693,35.94,50,{'all': 78},7.27,RU,1681225919
477,caravelas,-17.7125,-39.2481,78.76,83,{'all': 89},10.22,BR,1681225919
478,sanandaj,35.3144,46.9923,68.02,17,{'all': 40},18.41,IR,1681225920
479,erzin,36.9559,36.2,59.67,70,{'all': 28},7.07,TR,1681225920
480,veraval,20.9,70.3667,80.26,68,{'all': 19},13.49,IN,1681225920
481,miles city,46.4083,-105.8406,56.37,54,{'all': 0},8.05,US,1681225750
482,formiga,-20.4644,-45.4264,74.44,68,{'all': 99},5.32,BR,1681225623
483,bonthe,7.5264,-12.505,86.14,63,{'all': 38},13.24,SL,1681225921
484,cap malheureux,-19.9842,57.6142,78.48,77,{'all': 72},5.01,MU,1681225921
485,bilibino,68.0546,166.4372,-22.36,96,{'all': 14},5.32,RU,1681225921
486,dengzhou,37.8086,120.7508,48.25,36,{'all': 0},9.82,CN,1681225921
487,tijuana,32.5333,-117.0167,56.98,94,{'all': 100},3.44,MX,1681225715
488,yinchuan,38.4681,106.2731,57.58,11,{'all': 99},4.18,CN,1681225924
489,herouville-saint-clair,49.2109,-0.3065,51.62,81,{'all': 100},11.5,FR,1681225924
490,belmonte,-15.8631,-38.8828,79.99,80,{'all': 34},6.33,BR,1681225925
491,beloha,-25.1667,45.05,76.46,70,{'all': 1},9.57,MG,1681225926
492,ballina,-28.8667,153.5667,55.78,77,{'all': 98},6.64,AU,1681225927
493,jipijapa,-1.3333,-80.5833,81.9,69,{'all': 19},0.34,EC,1681225928
494,amalapuram,16.5833,82.0167,80.6,70,{'all': 6},5.95,IN,1681225930
495,huangzhai,38.0751,112.6595,48.61,17,{'all': 0},0.83,CN,1681225932
496,grand gaube,-20.0064,57.6608,78.39,77,{'all': 73},5.01,MU,1681225932
497,tiradentes,-21.1103,-44.1781,73.81,66,{'all': 79},5.77,BR,1681225932
498,vilyuysk,63.7553,121.6247,-10.57,100,{'all': 80},2.55,RU,1681225932
499,clyde river,70.4692,-68.5914,-0.17,85,{'all': 0},20.71,CA,1681225937
500,banjar,-8.19,114.9675,77.85,92,{'all': 74},4.83,ID,1681225939
501,tuni,17.35,82.55,83.16,61,{'all': 21},4.94,IN,1681225940
502,itamaraca,-7.7478,-34.8256,84.25,62,{'all': 100},7.43,BR,1681225940
503,come,6.4076,1.882,88.3,59,{'all': 80},13.87,BJ,1681225940
504,laguna,38.421,-121.4238,59.05,88,{'all': 100},5.75,US,1681225946
505,cholet,47.1667,-1.0,57.25,69,{'all': 100},15.77,FR,1681225949
506,bin qirdan,33.1378,11.2197,64.8,45,{'all': 2},12.62,TN,1681225949
507,murray bridge,-35.1167,139.2667,67.12,65,{'all': 1},20.85,AU,1681225954
508,krasnoselkup,65.7,82.4667,-1.89,96,{'all': 100},11.39,RU,1681225962
509,raymond,43.9015,-70.4703,63.52,34,{'all': 100},8.93,US,1681225963
510,paso de los toros,-32.8167,-56.5167,81.55,41,{'all': 0},12.55,UY,1681225725
511,tenabo,20.05,-90.2333,82.4,45,{'all': 88},3.15,MX,1681225963
512,sistranda,63.7256,8.834,49.96,67,{'all': 100},29.12,NO,1681225963
513,sept-iles,50.2001,-66.3821,46.06,76,{'all': 75},5.01,CA,1681225668
514,hvolsvollur,63.7533,-20.2243,43.47,90,{'all': 100},5.66,IS,1681225964
515,santa ines,-3.6667,-45.38,87.93,63,{'all': 49},3.76,BR,1681225964
516,vilhena,-12.7406,-60.1458,80.22,68,{'all': 100},4.14,BR,1681225964
517,kerekegyhaza,46.9372,19.4781,63.75,52,{'all': 100},10.45,HU,1681225964
518,indramayu,-6.3264,108.32,80.87,80,{'all': 98},5.35,ID,1681225965
519,chongwe,-15.3292,28.682,74.66,68,{'all': 98},2.68,ZM,1681225965
520,kostomuksha,64.571,30.5767,36.07,88,{'all': 99},5.08,RU,1681225965
521,tanout,14.9709,8.8879,100.11,9,{'all': 38},16.11,NE,1681225966
522,nizhniy tsasuchey,50.5167,115.1333,24.01,51,{'all': 1},10.85,RU,1681225966
523,lilongwe,-13.9669,33.7873,72.37,88,{'all': 51},2.1,MW,1681225900
524,honningsvag,70.9821,25.9704,35.35,87,{'all': 75},3.44,NO,1681225966
525,la ciotat,43.1748,5.6045,73.8,70,{'all': 99},20.6,FR,1681225966
526,satwas,22.5333,76.6833,93.11,13,{'all': 61},1.83,IN,1681225967
527,praya,14.9215,-23.5087,81.14,47,{'all': 20},18.41,CV,1681225967
528,clevelandia,-26.3958,-52.4708,75.92,47,{'all': 0},6.22,BR,1681225967
529,lang son,21.8333,106.7333,72.54,91,{'all': 79},2.04,VN,1681225967
530,high level,58.5169,-117.136,35.6,72,{'all': 13},4.81,CA,1681225967
531,labuhan,-6.8844,112.2051,79.41,83,{'all': 42},5.91,ID,1681225967
532,lander,42.833,-108.7307,44.58,70,{'all': 0},4.61,US,1681225968
533,esso,55.9333,158.7,5.94,97,{'all': 89},4.74,RU,1681225968
534,keene,42.9337,-72.2781,67.84,31,{'all': 0},4.61,US,1681225968
535,moindou,-21.6924,165.677,76.23,83,{'all': 44},2.33,NC,1681225968
536,vega de alatorre,20.0333,-96.6333,75.24,82,{'all': 75},8.5,MX,1681225968
537,grindavik,63.8424,-22.4338,39.67,93,{'all': 100},17.27,IS,1681225969
538,usevya,-7.1,31.2333,74.84,88,{'all': 69},2.75,TZ,1681225969
539,tessaoua,13.7574,7.9874,104.13,8,{'all': 49},13.67,NE,1681225969
540,homer,59.6425,-151.5483,28.8,84,{'all': 100},0.0,US,1681225969
541,staryy nadym,65.6118,72.6842,-7.62,92,{'all': 9},5.86,RU,1681225970
542,zabaykalsk,49.6333,117.3167,23.54,62,{'all': 14},18.88,RU,1681225970
543,horasan,40.0458,42.1728,45.91,89,{'all': 100},9.73,TR,1681225970
544,manoel urbano,-8.8389,-69.2597,76.57,91,{'all': 100},1.28,BR,1681225904
545,tautira,-17.7333,-149.15,80.89,73,{'all': 100},6.11,PF,1681225970
546,bani walid,31.7566,13.9942,67.42,26,{'all': 0},18.72,LY,1681225971
547,roros,62.5747,11.3842,40.84,60,{'all': 75},24.16,NO,1681225971
548,roald,62.5833,6.1333,56.32,47,{'all': 0},11.5,NO,1681225971
549,binga,-17.6203,27.3414,86.43,42,{'all': 58},6.17,ZW,1681225971
550,tupelo,34.2576,-88.7034,64.89,44,{'all': 0},6.91,US,1681225437
551,beidao,34.5686,105.8933,57.36,57,{'all': 80},5.35,CN,1681225972
552,marblehead,42.5001,-70.8578,72.32,24,{'all': 0},9.22,US,1681225972
553,pincher creek,49.4833,-113.952,44.89,80,{'all': 59},18.88,CA,1681225972
554,marienburg,54.0359,19.0266,60.89,67,{'all': 100},13.49,PL,1681225972
555,north myrtle beach,33.816,-78.68,65.12,43,{'all': 0},8.05,US,1681225965
556,mingyue,43.1069,128.9217,32.5,30,{'all': 4},16.15,CN,1681225972
557,sunam,30.1333,75.8,84.6,18,{'all': 55},7.83,IN,1681225973
558,santiago del estero,-27.7951,-64.2615,82.36,52,{'all': 0},18.37,AR,1681225881
559,kavaratti,10.5669,72.642,84.22,70,{'all': 60},9.33,IN,1681225973
560,pavlovka,52.6897,47.1405,53.87,39,{'all': 15},5.23,RU,1681225973
561,orlik,52.5178,99.825,18.41,86,{'all': 89},3.65,RU,1681225973
562,gizo,-8.103,156.8419,81.12,77,{'all': 89},6.17,SB,1681225974
563,amahai,-3.3333,128.9167,79.79,85,{'all': 53},2.3,ID,1681225974
564,svetlogorsk,52.6333,29.7333,57.52,45,{'all': 45},8.93,BY,1681225974
565,naraina,26.7833,75.2,89.78,14,{'all': 91},1.3,IN,1681225974
566,ovalle,-30.5983,-71.2003,78.1,34,{'all': 14},3.98,CL,1681225974
567,fort nelson,58.8053,-122.7002,31.95,52,{'all': 0},3.0,CA,1681225974
568,kokuy,52.2037,117.5529,20.68,83,{'all': 93},7.49,RU,1681225975
569,meadow lake,34.8014,-106.5436,66.49,35,{'all': 0},12.19,US,1681225975
570,minsk,53.9,27.5667,60.55,46,{'all': 99},7.4,BY,1681225248
571,abu dhabi,24.4667,54.3667,86.11,54,{'all': 0},4.61,AE,1681225747
572,mattru,7.6244,-11.8332,95.16,43,{'all': 26},3.27,SL,1681225975
573,lufilufi,-13.8745,-171.5986,73.18,69,{'all': 3},17.72,WS,1681225975
574,beyneu,45.3167,55.2,68.54,29,{'all': 29},9.13,KZ,1681225883
575,nusaybin,37.0778,41.2178,64.06,76,{'all': 100},4.18,TR,1681225976
576,gayny,60.3071,54.3241,35.01,89,{'all': 100},3.29,RU,1681225976
577,abalak,58.1286,68.5944,31.75,60,{'all': 98},7.43,RU,1681225976
578,port hedland,-20.3167,118.5667,80.65,69,{'all': 100},3.44,AU,1681225976
579,katangli,51.7102,143.2326,27.97,79,{'all': 100},18.34,RU,1681225977
580,bere,9.3202,16.1552,106.86,11,{'all': 94},5.35,TD,1681225977
581,pemberton,50.3164,-122.8027,38.89,93,{'all': 100},3.18,CA,1681225707
582,joanopolis,-22.9303,-46.2756,76.78,59,{'all': 20},1.7,BR,1681225977
583,burnie,-41.0667,145.9167,55.94,90,{'all': 92},14.47,AU,1681225977
584,marawi,7.9986,124.2928,67.77,88,{'all': 87},1.14,PH,1681225978
585,quelimane,-17.8786,36.8883,79.21,84,{'all': 45},6.89,MZ,1681225978
586,santa isabel do rio negro,-0.4139,-65.0192,91.51,53,{'all': 83},1.34,BR,1681225978
587,salalah,17.0151,54.0924,84.29,70,{'all': 40},6.91,OM,1681225978
588,turtas,58.9417,69.1325,29.97,81,{'all': 100},4.83,RU,1681225979
589,dudinka,69.4058,86.1778,-19.25,98,{'all': 61},9.78,RU,1681225979
590,marfino,55.7028,37.3822,61.05,29,{'all': 0},4.47,RU,1681225979
